addr:housenumber,addr:street,name,phone,addr:city,addr:province,addr:postcode,email,sport,website,addr:country,opening_hours,operator,attribution,canvec:CODE,source,access,addr:unit,golf:course,source:addr,created_by,alt_name,golf:par,start_date,wikidata,branch,brand,fee,building,golf,note,landuse,contact:city,contact:country,contact:email,contact:housenumber,contact:phone,contact:postcode,contact:province,contact:street,contact:website,contact:facebook,description,facebook,instagram,old_name,tourism,fax,type,wikipedia,source:url,area_m2,lat,lon,province,gcid
,,The Quail at Okanagan Golf Course,,,,,,,,,,,,,,,,,,,,,,,,,,,,,,,,,,,,,,,,,,,,,,,,,1767325.2659486048,49.95693934468868,-119.39876041007703,British Columbia,BA00245
16651,Rannie Road,Swaneset Bay Resort & Country Club,,Pitt Meadows,BC,V3Y1Z1,,,https://wcgg.ca/swaneset-bay-resort-country-club/,,,,,,,,,,,,,,,,,,,,,,,,,,,,,,,,,,,,,,,,,,1755573.7050645507,49.30686326462936,-122.65949860054863,British Columbia,BA00110
16651,Rannie Road,Swaneset Bay Resort & Country Club,,Pitt Meadows,BC,V3Y1Z1,,,https://wcgg.ca/swaneset-bay-resort-country-club/,,,,,,,,,,,,,,,,,,,,,,,,,,,,,,,,,,,,,,,,,,1755573.7050645507,49.30686326462936,-122.65949860054863,British Columbia,BA00111
,,Talking Rock Golf Course,,,,,,,https://www.quaaoutlodge.com/golf-en.html,,,,,,,,,,,,,,,,,,,,,,,,,,,,,,,,,,,,,,,,,,1737411.6339307034,50.87986400546251,-119.61518041504225,British Columbia,BA00309
6857,168 Street,Northview Golf & Country Club,+1-888-574-2211,Surrey,,V3S 3T6,,,https://www.northviewgolf.com,,,,,,,,,,,,,,,,,,,,,,,,,,,,,,,,,,,,,,,multipolygon,,,1693447.8999581318,49.125775415815504,-122.76801870304291,British Columbia,BA00021
,,Osoyoos,,,,,,,,,,,,,,,,,,,,,,,,,,,,,,,,,,,,,,,,,,,,,,,,,1375397.4252781644,49.022490338169916,-119.48742148883572,British Columbia,BA00341
,,Shadow Mountain Golf,,Cranbrook,,,,,,,,,,,,,,,,,,,,,,,,,,,,,,,,,,,,,,,,,,,,,,,1238708.1429190799,49.57644457629442,-115.79154712801385,British Columbia,BA00288
950,Wildstone Drive,Wildstone,,Cranbrook,BC,V1C 0B4,,,,,,,,,,,,,,,,,,,,,,,,,,,,,,,,,,,,,,,,,,,,,1150886.1875375719,49.542882284963405,-115.76062135389475,British Columbia,BA00312
,,Unknown Golf Course,,,,,,golf,,,,,,,NRCan-CanVec-7.0,,,,,,,,,,,,,,,,,,,,,,,,,,,,,,,,,,,,1116090.4956938752,56.32435210862376,-120.99705349322036,British Columbia,BA00126
,,Tobiano Golf Course,,,,,,,https://www.tobianogolf.com/,,,,,,,,,,,,,,,,,,,,,,,,,,,,,,,,,,,,,,,,,,1095792.8433653582,50.73677941571427,-120.69508777662044,British Columbia,BA00310
,,Tobiano Golf Course,,,,,,,https://www.tobianogolf.com/,,,,,,,,,,,,,,,,,,,,,,,,,,,,,,,,,,,,,,,,,,1095792.8433653582,50.73677941571427,-120.69508777662044,British Columbia,BA00311
,,Kitimat Golf Course,,,,,,,,,,,,,,,,,,,,,,,,,,,,,,,,,,,,,,,,,,,,,,,,,981684.7154230102,54.07754730117432,-128.63555680375327,British Columbia,BA00122
,,Trickle Creek,,,,,,,,,,,,,,,,,,,,,,,,,,,,,,,,,,,,,,,,,,,,,,,,,977873.7920448247,49.679212962481174,-115.99519904860493,British Columbia,BA00313
1025,Qualicum Road,Pheasant Glen Golf Resort,+1 250 752-8786,,,,,,https://www.pheasantglen.com/contact/,,,,,,,,,,,,,,,,,,,,,,,,,,,,,,,,,,,,,,,,,,974927.9728102054,49.33277667258616,-124.42720242456211,British Columbia,BA00207
301,Village Centre Place,Predator Ridge,,Vernon,,V1H 1T2,,,,,,,,,,,,,,,,,,Q7239606,,,,,,,,,,,,,,,,,,,,,,,,multipolygon,,,955160.4797469908,50.188780200362864,-119.38471207348186,British Columbia,BA00059
301,Village Centre Place,Predator Ridge,,Vernon,,V1H 1T2,,,,,,,,,,,,,,,,,,Q7239606,,,,,,,,,,,,,,,,,,,,,,,,multipolygon,,,955160.4797469908,50.188780200362864,-119.38471207348186,British Columbia,BA00060
8341,Nixon Road,The Falls,+1-604-745-4653,Chilliwack,BC,,,,https://www.thefalls.com/,,,,,,,,,,,,,,,,,,,,,,,,,,,,,,,,,,,,,,,multipolygon,,,945819.4292529898,49.14782055535335,-121.82198090930802,British Columbia,BA00043
,,Bear Mountain Resort - Valley Course,,,,,,,,,,,,,,,,18_hole,,,,,,Q4876506,,,,,,,,,,,,,,,,,,,,,,,,multipolygon,en:Bear Mountain (resort),,880181.7514532899,48.484780717561165,-123.5219265812852,British Columbia,BA00032
,,Vernon,,,,,,,,,,,,,,,,,,,,,,,,,,,,,,,,,,,,,,,,,,,,,,,,,873751.3490538731,50.185038267091684,-119.4080923128346,British Columbia,BA00268
,,Vernon,,,,,,,,,,,,,,,,,,,,,,,,,,,,,,,,,,,,,,,,,,,,,,,,,873751.3490538731,50.185038267091684,-119.4080923128346,British Columbia,BA00269
,,Fraserview Golf Course,,,,,,,,,,,,,,,,,,,,,,,,,,,,,,,,,,,,,,,,,,,,,,,,,854796.6483631245,49.21209498921172,-123.04810379243482,British Columbia,BA00063
,,Harvest Golf Course,,,,,,,,,,,,,,,,,,,,,,,,,,,,,,,,,,,,,,,,,,,,,,,,,849118.0739441372,49.854524224208674,-119.4256247021026,British Columbia,BA00154
,,Lone Wolf Golf Course,,,,,,golf,,,,,,,,,,,,,,,,,,,,,,,,,,,,,,,,,,,,,,,,,,,844227.8896887794,56.16315563859659,-120.67590860574417,British Columbia,BA00176
,,Morningstar Golf Club,,,,,,,,,,,,,,,,,,,,,,,,,,,,,,,,,,,,,,,,,,,,,,multipolygon,,,816945.0512321733,49.334258036886766,-124.36119264439053,British Columbia,BA00028
,,Storey Creek Golf & Recreation Society,,,,,,,,,,,,,,,,,,,,,,,,,,,,,,,,,,,,,,,,,,,,,,,,,808574.139042315,49.926862432226415,-125.21353975541462,British Columbia,BA00227
,,Copper Point Golf Course,,,,,,,,,,,,,,,,,,,,,,,,,,,,,,,,,,,,,,,,,,,,,,,,,805120.4726419181,50.506040667052716,-116.00119618812109,British Columbia,BA00272
,,Redstone Resort,+1-877-362-4555,,,,,,https://redstoneresort.com/,,,Redstone Resort,,,Bing,,,,,,,,,,,,,,,,,,,,,,,,,,,,,,,,,,,,785825.5057366465,49.0665131500715,-117.78435016996374,British Columbia,BA00183
,,Fernie Golf & Country Club,,,,,,golf,,,,,,,NRCan-CanVec-7.0,,,,,,,,,,,,,,,,,,,,,,,,,,,,,,,,,,,,783130.2319794468,49.51760318178611,-115.04813250059182,British Columbia,BA00127
,,Highland Pacific Golf,,,,,,,,,,,,,,,,,,,,,,,,,,,,,,,,,,,,,,,,,,,,,,multipolygon,,,778383.9010748405,48.472113885625504,-123.45011285969892,British Columbia,BA00024
,,Kokanee Springs Golf Resort,,,,,,,,,,,,,,,,,,,,,,,,,,,,,,,,,,,,,,,,,,,,,,,,,777171.7432713029,49.68365681719935,-116.81079252125046,British Columbia,BA00106
652,Dunes Drive,The Dunes at Kamloops,,Kamloops,,V2B 8M8,,,,,,,,,City of Kamloops,,,,,,,,,,,,,,,,,,,,,,,,,,,,,,,,,,,,754669.6168157095,50.78237947845157,-120.33175870782355,British Columbia,BA00211
,,Bootleg Gap Golf Course,,Kimberley,BC,,,,https://www.bootleggapgolf.com/,,,,,,,,,,,,,,,,,,,,,,,,,,,,,,,,,,,,,,,,,,753050.4471799649,49.62718492660834,-115.94472844823808,British Columbia,BA00149
,,Crown Isle Golf Club,,,,,,,,,,,,,,,,,,,,,,,,,,,,,,,,,,,,,,,,,,,,,,multipolygon,,,744416.0679910163,49.70957195128668,-124.9512020130332,British Columbia,BA00029
,,Hyde Mountian,,,,,,,,,,,,,,,,,,,,,,,,,,,,,,,,,,,,,,,,,,,,,,,,,732632.5552587438,50.80430092481529,-118.99858808338303,British Columbia,BA00230
,,Bear Mountain Resort - Mountain Course,,,,,,,,,,,,,,,,18_hole,,,,,,Q4876506,,,,,,,,,,,,,,,,,,,,,,,,multipolygon,en:Bear Mountain (resort),,731662.5598515489,48.472254644427096,-123.53309789699655,British Columbia,BA00023
3641,Highway 97B,Salmon Arm Golf Club,,Salmon Arm,,,,golf,,,,,,,NRCan-CanVec-8.0,,,,,,,,,,,,,,,,,,,,,,,,,,,,,,,,,,,,721262.5950837029,50.6784712827908,-119.22143947545693,British Columbia,BA00151
,,Westwood Plateau Golf & Country Club,,,,,,,,,,,,,,,,,,,,,,Q7989908,,,,,,,,,,,,,,,,,,,,,,,,multipolygon,,,716648.1007826375,49.315463645518264,-122.79560927836353,British Columbia,BA00044
,,Tower Ranch Golfclub,,,,,,,https://golftowerranch.com/,,,,,,,,,,,,,,,,,,,,,,,,,,,,,,,,,,,,,,,multipolygon,,,711665.8340801578,49.9112820479296,-119.33981126028512,British Columbia,BA00033
,,Olympic View Golf Club,,,,,,,,,,,,,,,,,,,,,,,,,,,,,,,,,,,,,,,,,,,,,,,,,701313.2070658231,48.400805764669,-123.52348448706745,British Columbia,BA00095
,,Vancouver Golf Club,,,,,,,,,,,,,,,,,,,,,,Q7914188,,,,,,,,,,,,,,,,,,,,,,,,,,,690787.7254919737,49.252424145736086,-122.87705380097215,British Columbia,BA00097
933,Old Golf Course Road,Fairview Mountain Golf Club,,Oliver,BC,,,,https://fairviewmountain.com/,,,,,,,,,,,,,,,,,,,,,,,,,,,,,,,,,,,,,,,,,,688198.7912411176,49.16136756058356,-119.59456115202015,British Columbia,BA00308
,,St. Eugene Golf Course,,,,,,,,,,,,,,,,,,,,,,,,,,,,,,,,,,,,,,,,,,,,,,,,,686984.4951881531,49.58274476687408,-115.76828169670281,British Columbia,BA00305
,,Redwoods Golf Course,,,,,,,,,,,,,,,,,,,,,,,,,,,,,,,,,,,,,,,,,,,,,,,,,672083.784233901,49.16887360738821,-122.61755444057374,British Columbia,BA00117
,,Shaughnessy Golf Course,,,,,,,,,,,,,landsat,,,,,,,,,,,,,,,,,,,,,,,,,,,,,,,,,multipolygon,,,667448.1142593886,49.23425483574164,-123.20877478706396,British Columbia,BA00022
14282,Morris Valley Road,Sandpiper Golf Course,+1-877-796-1001,Harrison Mills,BC,V0M 1L0,,,https://sandpipergc.com,,Mo-Su 06:00-21:00,,,,,,,,,,Sandpiper Resort Golf Course,,2016-04,,,,,,,,,,,,,,,,,,,"Nestled in centuries-old forest and surrounded by the West Coast’s idyllic landscape, Sandpiper Golf Course is a beautiful 18-hole golf course. Open 364 days a year, this par 72 course runs 6,500 yards from the back tees.",https://www.facebook.com/sandpipergolfcourse/,https://www.instagram.com/sandpiperresort/,Pretty Estates Resort,resort,,,,,665409.8709059826,49.25594475948435,-121.94688271342186,British Columbia,BA00131
,,NK'Mip Canyon Desert Golf Course,,,,,,,https://nkmipcanyon.ca/,,,,,,,,,,,,,,,,,,,,,,,,,,,,,,,,,,,,,,,,,,661987.9725448149,49.19672810345433,-119.53075879787248,British Columbia,BA00340
,,Royal Colwood Golf Club,,,,,,,,,,,,,,,,,,,,,,,,,,,,,,,,,,,,,,,,,,,,,,multipolygon,,,651200.1454460684,48.44317392769926,-123.48313020127213,British Columbia,BA00025
9001,Bill Fox Way,Riverway Golf Course,,,,,,,,,,,,,,,,,,,,,,,,,,,,,,,,,,,,,,,,,,,,,,,,,650411.341419691,49.20230303989685,-122.99662293176488,British Columbia,BA00099
7700,168 Street,Surrey Golf Club,+1-604-576-8224,Surrey,,V4N 0E1,,,https://www.surreygolf.com/,,,,,,,,,,,,,,,,,,,,,,,,,,,,,,,,,,,,,,,,,,649986.3880485253,49.140474376453135,-122.74875381769479,British Columbia,BA00094
,,Duncan Meadows Golf Course,,,,,,,,,,,,,,,,,,,,,,,,,,,,,,,,,,,,,,,,,,,,,,,,,648930.4648881587,48.80906532152218,-123.74662187380812,British Columbia,BA00231
,,Unknown Golf Course,,,,,,,,,,,,,,,,,,,,,,,,,,,,,,,,,,,,,,,,,,,,,,,,,648072.0342541913,51.73697363046355,-121.34470632956116,British Columbia,BA00289
,,Capilano Golf & Country Club,,,,,,,,,,,,,,,,,,,,,,,,,,,,,,,,,,,,,,,,,,,,,,,,,643399.4710972338,49.34970195459022,-123.12537105776718,British Columbia,BA00124
,,Christina Lake Golf Club,,,,,,,,,,,,,,,,,,,,,,,,,,,,,,,,,,,,,,,,,,,,,,,,,627920.4344900763,49.01895576020961,-118.20477672845391,British Columbia,BA00252
3388,72 Street,Kings Links Golf Course by the Sea,+1 604-952-0999,,,V4K 3N2,,,https://www.kingslinks.ca/,,,Kings Links Golf Course By The Sea Ltd,,,,,,,,,,,,,,,,,,,,,,,,,,,,,,,,,,,,,,,621175.0465954972,49.06476528675668,-123.01903800934457,British Columbia,BA00066
,,Royalwood Golf Club,,,,,,,,,,,,,,,,,,,,,,,,,,,,,,,,,,,,,,,,,,,,,,,,,617976.1008278213,49.120824881954384,-122.08760145961396,British Columbia,BA00076
,,Big Sky Golf Club,,,,,,,https://bigskygolf.ca/,,,,,,,,,,,,,,,,,,,,,,,,,,,,,,,,,,,,,,,,,,616603.2292003793,50.3012762107139,-122.76850285876567,British Columbia,BA00344
,,Skeena Valley Golf & Country Club,,,,,,,,,,,,,,,,,,,,,,,,,,,,,,,,,,,,,,,,,,,,,,,,,615287.2822291056,54.51138466332973,-128.51078950837464,British Columbia,BA00123
,,Castlegar Golf Club,,,,,,,,,,,,,,,,,,,,,,,,,,,,,,,,,,,,,,,,,,,,,,multipolygon,,,613139.9147057381,49.30626185700164,-117.61531730718127,British Columbia,BA00061
7887,264th Street,Pagoda Ridge,+1-604-856-0929,,,,,,https://www.pagodaridge.ca/,,,,,,,,,,,,,,,,,,,,,,,,,,,,,,,,,,,,,,,,,,610269.4772870168,49.1438290085835,-122.49846003542052,British Columbia,BA00285
,,Unknown Golf Course,,,,,,,,,,,,,,,,,,,,,,,,,,,,,,,,,,,,,,,,,,,,,,,,,606561.2050279314,49.79613245457382,-124.4567356412007,British Columbia,BA00249
,,Hazelmere Golf Course,,,,,,,,,,,,,,,,,,,,,,,,,,,,,,,,,,,,,,,,,,,,,,,,,604056.2986863555,49.012191608493154,-122.71945465140242,British Columbia,BA00089
,,Dawson Creek Golf & Country Club,+1-250-782-7882,,,,,golf,https://dawsoncreekgolfclub.ca/,,,,,,,,,18_hole,,,,,,,,,,,,,,,,,,,,,,,,,,,,,,,,,599249.7204794197,55.772903636177645,-120.2695986441018,British Columbia,BA00188
8888,Barnhartvale Road,Eaglepoint Golf Resort,,Kamloops,,V2C 6W1,,,,,,,,,,,,,,,,,,,,,,,,,,,,,,,,,,,,,,,,,,,,,593875.9738854608,50.64096447024222,-120.08600083581577,British Columbia,BA00209
7600,Halifax Street,Burnaby Mountain Golf Course,,,,,,,https://www.golfburnaby.ca/burnaby-mountain,,,City of Burnaby,,,,,,18_hole,,,,72,1969-05,Q105899572,,,,,,,,,,,,,,,,,,,,,,,,,,,588651.1425108883,49.26447555906627,-122.94223788828249,British Columbia,BA00096
,,Gorge Vale Golf Course,,,,,,golf,https://www.gorgevalegolf.com/,,,,,,ParcelMap BC Parcel Fabric,,,,,,,,,,,,,,,,,,,,,,,,,,,,,,,,,multipolygon,,,587568.8279384325,48.44248195478604,-123.41081322283698,British Columbia,BA00041
,,Gallagher's Canyon Golf & Country Club,,,,,,,,,,,,,,,,,,,,,,,,,,,,,,,,,,,,,,,,,,,,,,multipolygon,,,583850.6782615441,49.83970153978967,-119.38206178587991,British Columbia,BA00035
,,Peace Arch Golf Course,,,,,,,,,,,,,,,,,,,,,,,,,,,,,,,,,,,,,,,,,,,,,,,,,577506.7780528134,49.01054221145893,-122.75408443636802,British Columbia,BA00088
,,Point Grey Golf & Country Club,,,,,,,,,,,,,,,,,,,,,,,,,,,,,,,,,,,,,,,,,,,,,,,,,577478.713789933,49.22374883752251,-123.18501000226361,British Columbia,BA00098
,,Seymour Golf and Country Club,,,,,,,https://www.seymourgolf.com/,,,,,,,,,,,,,,,,,,,,,,,,,,,,,,,,,,,,,,,,,,555457.2604218625,49.31203823366786,-122.96352855290144,British Columbia,BA00279
1800,Mallory Road,Creston Golf Club,+1- 250-428-5515,Creston,BC,V0B 1G2,,golf,https://www.crestongolf.com/,,,,,,NRCan-CanVec-10.0,,,,,,,,,,,,,,,,,,,,,,,,,,,,,,,,,multipolygon,,,554062.9513994931,49.049468425707744,-116.49602243148036,British Columbia,BA00039
,,Fairmont Chateau Whistler Golf Club,,,,,,,,,,,,,,,,,,,,,,,,,,,,,,,,,,,,,,,,,,,,,,,,,550963.8348461295,50.12988400283729,-122.93415020542854,British Columbia,BA00069
,,Shuswap National Golf Course,,,,,,golf,,,,,,,,,,,,,,,,,,,,,,,,,,,,,,,,,,,,,,,,,,,549610.4672747491,50.65629993247095,-119.21385058115608,British Columbia,BA00317
,,Arbutus Ridge Golf and Country Club,,,,,,golf,,,,,Natural Resources Canada,1000082,CanVec_Import_2009,,,,,,,,,,,,,,,,,,,,,,,,,,,,,,,,,multipolygon,,,547432.673598284,48.687830950842915,-123.54716027104975,British Columbia,BA00015
602,Queens Bay Road,Balfour Golf Course,,Balfour,BC,,,,,,,,,,,,,,,,,,,,,,,,,,,,,,,,,,,,,,,,,,,,,,542647.2766550834,49.630990545880415,-116.9583409418498,British Columbia,BA00296
,,Rossland-Trail Country Club - Birchbank Golf Course,,,,,,,,,,,,,,,,,,,,,,,,,,,,,,,,,,,,,,,,,,,,,,,,,539456.5894952733,49.16264891082235,-117.72879263179632,British Columbia,BA00214
,,Riverside Golf Course,,,,,,,https://www.fairmonthotsprings.com/golf/riverside-course,,,Fairmont Hot Springs Resort,,,,,,,,,,,,,,,,,,,,,,,,,,,,,,,,,,,,,,,539103.0233802669,50.329819721008334,-115.8676563232578,British Columbia,BA00250
2458,Mamquam Road,Squamish Valley Golf Club,+1-604-898-9521,Squamish,,V8B 8H8,,,https://squamishvalleygolf.com/,,,,,,,,,,,,,,,,,,,,,,,,,,,,,,,,,,,,,,,multipolygon,,,537699.3898950893,49.73270547391457,-123.12483276559797,British Columbia,BA00051
2700,2nd St S,Cranbrook Golf Club,,Cranbrook,BC,V1C 4H8,,golf,https://www.golfcranbrook.com/,,,,,,NRCan-CanVec-10.0,,,,,,,,,,,,,,,,,,,,,,,,,,,,,,,,,,,,535817.4520079846,49.512259442473045,-115.74329228883506,British Columbia,BA00174
,,Golden Eagle Golf Course (South Course),,,,,,,,,,,,,,,,,,,,,,,,,,,,,,,,,,,,,,,,,,,,,,,,,534020.2820827803,49.286163838400604,-122.62272154310892,British Columbia,BA00201
9100,Steveston Highway,Richmond Country Club,,Richmond,BC,,,,,,,,,,,,,,,,,,,,,,,,,,,,,,,,,,,,,,,,,,,,,,532940.772698205,49.12772750877802,-123.1248531593744,British Columbia,BA00071
,,Fairmont Mountainside Golf Course,,,,,,,https://www.fairmonthotsprings.com/golf/mountainside-course,,,Fairmont Hot Springs Resort,,,,,,,,,,,,,,,,,,,,,,,,,,,,,,,,,,,,multipolygon,,,531777.5134391802,50.32687538671505,-115.85476646947681,British Columbia,BA00053
,,Smithers Golf and Country Club,,,,,,,,,,,,,,,,,,,,,,,,,,,,,,,,,,,,,,,,,,,,,,,,,530412.4712821142,54.793307598766006,-127.18986258418981,British Columbia,BA00194
3206,Sunshine Coast Highway,Sunshine Coast Golf & Country Club,,Roberts Creek,,,,,https://sunshinecoastgolf.com/,,,,,,,,,,,,,,,,,,,,,,,,,,,,,,,,,,,,,,,,,,529231.4894223072,49.43119351836327,-123.63611028222974,British Columbia,BA00282
,,Rivershore Estates & Golf Links,,,,,,golf,https://rivershoregolflinks.com/,,,,,,NRCan-CanVec-7.0,,,,,,,,,,,,,,,,,,,,,,,,,,,,,,,,,multipolygon,,,522006.00480404426,50.65488802112075,-120.00114904183572,British Columbia,BA00031
1200,Knight Road,Glacier Greens Golf Course,+1-250-339-6515,,,,,,,,,,,,,,,,,,,,,,,,,,,,,,,,,,,,,,,,,,,,,,,,520340.374799451,49.706282192616605,-124.89257762839095,British Columbia,BA00142
,,Cordova Bay Golf Course - Bay Course,,,,,,,,,,,Natural Resources Canada,1000082,CanVec_Import_2009,,,,,,,,,,,,,,,,,,,,,,,,,,,,,,,,,,,,518735.1680932526,48.5353265913002,-123.37160152233267,British Columbia,BA00162
4955,Trans-Canada Highway,Cowichan Golf & Country Club,,,,,,golf,,,,,Cowichan Valley Regional District,,CVRD,,,,,,,,,,,,,,,,,,,,,,,,,,,,,,,,,multipolygon,,,517301.50575914484,48.7505746705192,-123.66460274027128,British Columbia,BA00016
,,Northlands Golf Course,,,,,,,https://golfnorthlands.com/,,,,,,,,,,,,,,,,,,,,,,,,,,,,,,,,,,,,,,,,,,517110.3499671608,49.319823147677,-122.97994816974789,British Columbia,BA00253
,,Mayfair Lakes Golf Course,,,,,,,,,,,,,,,,,,,,,,,,,,,,,,,,,,,,,,,,,,,,,,multipolygon,,,515701.54748710396,49.17529465146831,-123.03456962492056,British Columbia,BA00018
523,9th Avenue West,Prince Rupert Centennial Golf,,,,V8J2S9,,,https://www.princerupertgolf.com/,,,,,,,,,,,,,,,,,,,,,,,,,,,,,,,,,,,,,,,,,,515546.7451333769,54.30464498184349,-130.31700679598478,British Columbia,BA00180
,,Nicklaus North Golf Course,,,,,,,,,,,,,,,,,,,,,,,,,,,,,,,,,,,,,,,,,,,,,,,,,515467.5830308616,50.140194354208994,-122.95618350048575,British Columbia,BA00068
,,Unknown Golf Course,,,,,,golf,,,,,,,,,,,,,,,,,,,,,,,grass,,,,,,,,,,,,,,,,,,,,514556.7043316191,50.357954568003834,-119.28401957012204,British Columbia,BA00150
29110,Matheson Avenue,Eighteen Pastures,,Mission,BC,V4S1B5,,,,CA,,,,,,,,18_hole,,,,,,,,,,,,,,Maple Ridge,CA,eighteenpastures@gmail.com,29910,+1-604-462-8622,V4S1B5,BC,Matheson Avenue,https://www.eighteenpastures.com,,,,,,,,,,,514412.3796711431,49.199271042068936,-122.41851978310903,British Columbia,BA00339
,,Kamloops Golf & Country Club,,,,,,golf,,,,,,,NRCan-CanVec-7.0,,,,,,,,,,,,,,,,,,,,,,,,,,,,,,,,,,,,513001.87653612095,50.71046655739163,-120.44671874272767,British Columbia,BA00128
,,Williams Lake Golf and Tennis Club,,,,,,golf,,,,,,,,,,,,,,,,,,,,,,,,,,,,,,,,,,,,,,,,,,,502698.26837488427,52.11845516903162,-122.14777940476681,British Columbia,BA00265
,,Fairwinds Golf Club,,,,,,,,,,,,,,,,,,,,,,,,,,,,,,,,,,,,,,,,,,,,,,multipolygon,,,501952.4812511939,49.277778765351684,-124.13097999692953,British Columbia,BA00037
,,Farmington Fairways,,,,,,,,,,,,,,,,,,,,,,,,,,,,,,,,,,,,,,,,,,,,,,,,,500442.94432129303,55.85857845348629,-120.39378744522426,British Columbia,BA00191
,,McCleery Golf Course,,,,,,,,,,,,,,,,,,,,,,,,,,,,,,,,,,,,,,,,,,,,,,,,,499253.4554192954,49.21953991338958,-123.16776647452716,British Columbia,BA00103
,,University Golf Club,,,,,,,,,,,,,,,,,,,,,,,,,,,,,,,,,,,,,,,,,,,,,,multipolygon,,,497561.40088870627,49.264557200188385,-123.2250998459205,British Columbia,BA00050
,,Mountain Avenue,,,,,,,,,,,,,,,,,,,,,,,,,,,,,,,,,,,,,,,,,,,,,,,,,495914.43050006585,49.555936209524084,-119.69516317085196,British Columbia,BA00318
,,Pitt Meadows Golf Club,,,,,,,,,,,,,,,,,,,,,,,,,,,,,,,,,,,,,,,,,,,,,,,,,494576.86442015064,49.2530781365798,-122.6959429744886,British Columbia,BA00112
36036,South Parallel Road,Fraserglen Golf Course,+1-604-859-3477,,,V3G 2K4,,golf,https://www.fraserglen.com/,,,,,,,,,,,,,,,,,,,,,,,,,,,,,,,,,,,,,,,,,,492451.75373601064,49.03258244439032,-122.22998053047718,British Columbia,BA00082
,,Furry Creek Golf and Country Club,,,,,,,,,,,,,,,,,,,,,,,,,,,,,,,,,,,,,,,,,,,,,,multipolygon,,,492296.629041394,49.57923401867498,-123.22139631422884,British Columbia,BA00055
,,Prince George Golf & Curling Club,,,,,,,,,,,,,,,,,,,,,,,,,,,,,,,,,,,,,,,,,,,,,,,,,491349.11296672915,53.89257810848528,-122.7751403548093,British Columbia,BA00067
3551,Granville Avenue,Quilchena Golf & Country Club,,,,,,,,,,,,,,,,,,,,,,,,,,,,,,,,,,,,,,,,,,,,,,,,,490697.9726546617,49.161604491051015,-123.19258742742177,British Columbia,BA00100
,,Uplands Golf Club,,,,,,,,,,,,,,,,,,,,,,,,,,,,,,,,,,,,,,,,,,,,,,,,,489502.28984673484,48.451133328490734,-123.30990774847582,British Columbia,BA00085
7926,152 Street,Guildford Golf & Country Club,,Surrey,BC,V3S 3M5,,,,,,,,,City of Surrey 2010 Orthographs,,,,,,,,,,,,,,,,,,,,,,,,,,,,,,,,,multipolygon,,http://www.surrey.ca/city-services/658.aspx,485579.80157912977,49.14534136204778,-122.80690200023841,British Columbia,BA00020
,,Aspen Golf Course,,,,,,golf,,,,,,,NRCan-CanVec-7.0,,,,,,,,,,,,,,,,,,,,,,,,,,,,,,,,,,,,483107.1827935438,53.81817251507757,-122.66316528914763,British Columbia,BA00130
,,Vernon Golf Club,,,,,,golf,,,,,,,NRCan-CanVec-7.0;NRCan-CanVec-8.0,,,,,,,,,,,,,,,,,,,,,,,,,,,,,,,,,,,,480668.6649384358,50.24592207723278,-119.2681163064592,British Columbia,BA00145
2800,Highland Boulevard,Nanaimo Golf Club,,,,,,,,,,,,,,,,18_hole,StatCan Open Data,,,,,,,,,,,,,,,,,,,,,,,,,,,,,,,,480483.79336547625,49.200980902792814,-123.98415043684317,British Columbia,BA00165
533,Dominion Ave,Carnoustie Golf Club,,Port Coquitlam,BC,V3E3G7,,,,,,,,,,,,,,,,,,,,,,,,,,,,,,,,,,,,,,,,,,multipolygon,,,479130.20056490327,49.2622487847897,-122.73357043939458,British Columbia,BA00058
,,Golden Golf Club,,,,,,,,,,,,,,,,,,,,,,,,,,,,,,,,,,,,,,,,,,,,,,multipolygon,,,472883.82003465213,51.332783595487605,-117.00804654245356,British Columbia,BA00062
21025,48 Avenue,Newlands Golf and Country Club,,,,,,,,,,,,,,,,,,,,,,,,,,,,,,,,,,,,,,,,,,,,,,multipolygon,,,471378.73800813773,49.093720422386866,-122.63986472802506,British Columbia,BA00046
,,Langara Golf Course,,,,,,,,,,,,,Yahoo,,,,,,Langara Golf Club,,,,,,,,,,,,,,,,,,,,,,,,,,,,,,462948.41052339546,49.22080863891834,-123.11126451145363,British Columbia,BA00087
,,Belmont Golf Course,,,,,,,,,,,,,,,,,,,,,,,,,,,,,,,,,,,,,,,,,,,,,,,,,462360.78967081645,49.156149784213305,-122.59445439714929,British Columbia,BA00072
,,Unknown Golf Course,,,,,,,,,,,,,,,,,,,,,,,,,,,,,,,,,,,,,,,,,,,,,,,,,461235.68114062917,49.33651862670563,-119.72137520676463,British Columbia,BA00148
,,Kimberley Golf Course,,,,,,golf,,,,,,,NRCan-CanVec-10.0,,,,,,,,,,,,,,,,,,,,,,,,,,,,,,,,,,,,459608.1422222581,49.63519826779467,-115.96978178840418,British Columbia,BA00173
,,Revelstoke Golf Club,,,,,,golf,,,,,,,NRCan-CanVec-10.0,,,,,,,,,,,,,,,,,,,,,,,,,,,,,,,,,,,,459432.5928000627,51.012328508689215,-118.22762551873615,British Columbia,BA00178
,,Sunstone Golf Club,,,,,,golf,https://www.sunstonegolfclub.com/,,,,,,,,,,,,,,,,,,,,,,,,,,,,,,,,,,,,,,,,,,453847.0413180521,50.30112751229875,-122.74829627533887,British Columbia,BA00261
700,Petersen Road,Campbell River Golf & Country Club,+1-250-287-4970,,,,info@crgolf.ca,,https://crgolf.ca/,,Th-Su 08:00-09:00,,,,,,,,,,,,,,,,,,,,,,,,,,,,,,,,,,,,,multipolygon,,,451257.0136722892,50.020190803334266,-125.27580758578756,British Columbia,BA00027
,,Cache Creek,,,,,,golf,,,,,,,NRCan-CanVec-7.0,,,,,,,,,,,,,,,,,,,,,,,,,,,,,,,,,,,,450206.574647839,50.806173619664484,-121.30897510116189,British Columbia,BA00136
,,Two Eagles Golf Course,+1 250-768-0080,,,,info@twoeaglesgolf.com,,http://www.twoeaglesgolf.com/,,,,,,,,,,,,,,,,,,,,,,,,,,,,,,,,,,,,,,,,,,448845.5890346788,49.834777573209564,-119.6058349326226,British Columbia,BA00175
,,Chilliwack Golf and Country Club,,,,,,,,,,,,,,,,,,,,,,,,,,,,,,,,,,,,,,,,,,,,,,,,,446986.98355687846,49.12621926008311,-122.06631877256333,British Columbia,BA00077
,,Black Mountain,,,,,,,,,,,,,,,,,,,,,,,,,,,,,,,,,,,,,,,,,,,,,,,,,441698.4616784385,49.88215872824999,-119.34493648350382,British Columbia,BA00246
,,Unknown Golf Course,,,,,,golf,,,,,,,NRCan-CanVec-8.0,,,,,,,,,,,,,,,,,,,,,,,,,,,,,,,,,,,,440820.76568232896,54.01382328420665,-125.05931268969348,British Columbia,BA00170
,,Cottonwood Golf Course,,,,,,,,,,,,,,,,,,,,,,,,,,,,,,,,,,,,,,,,,,,,,,,,,440704.40420783125,49.05588506041052,-123.8660285080713,British Columbia,BA00247
,,Kelowna Springs Golf Club,,,,,,,,,,,,,,,,,,,,,,,,,,,,,,,,,,,,,,,,,,,,,,,,,434088.41169519076,49.92540696144112,-119.37515791425503,British Columbia,BA00167
,,Golden Eagle Golf Course (North Course),,,,,,,,,,,,,,,,,,,,,,,,,,,,,,,,,,,,,,,,,,,,,,,,,431232.5707394548,49.29743400350994,-122.6180241156319,British Columbia,BA00200
,,Whistler Golf Course,,,,,,,,,,,,,,,,,,,,,,,,,,,,,,,,,,,,,,,,,,,,,,multipolygon,,,427915.05546912306,50.1154015460499,-122.96580104149112,British Columbia,BA00052
,,Shuswap Lake Golf Course,,,,,,,,,,,,,,,,,,,,,,,,,,,,,,,,,,,,,,,,,,,,,,,,,424179.4680777914,50.866166057762754,-119.37228253826201,British Columbia,BA00316
,,Marine Drive Golf Club,,,,,,,,,,,,,,,,,,,,,,,,,,,,,,,,,,,,,,,,,,,,,,,,,423825.523230676,49.216533805615285,-123.16054766541974,British Columbia,BA00104
5101,Upper Booth Road South,Sunset Ranch Golf & Country Club,,,,,,,,,,,,,,,,,,,,,,,,,,,,,,,,,,,,,,,,,,,,,,multipolygon,,,417729.92927111307,49.93710277006011,-119.34940447483599,British Columbia,BA00054
,,Meadowlands Golf and Country Club,,,,,,,,,,,,,,,,,,,,,,,,,,,,,,,,,,,,,,,,,,,,,,,,,403645.15074722003,49.18829822800073,-121.89969142051773,British Columbia,BA00081
,,Ledgeview Golf and Country Club,,,,,,,,,,,,,,,,,,,,,,,,,,,,,,,,,,,,,,,,,,,,,,,,,402134.7678020382,49.07355762388876,-122.23026629125484,British Columbia,BA00086
,,Victoria Golf Club,,,,,,,,,,,,,,,,,,,,,,Q7926734,,,,,,,,,,,,,,,,,,,,,,,,multipolygon,,,399515.177159066,48.41453654029025,-123.29965522226979,British Columbia,BA00026
,,Tsawwassen Springs Golf Course,,,,,,,https://www.tsawwassensprings.ca/,,,,,,,,,,,,,,,,,,,,,,,,,,,,,,,,,,,,,,,multipolygon,,,395377.26207523776,49.03165819035268,-123.08423961369856,British Columbia,BA00042
5291,North Island Highway,Sunnydale Golf Club,,,,,,,,,,,,,,,,,,,,,,,,,,,,,,,,,,,,,,,,,,,,,,multipolygon,,,394058.3410296446,49.73598072407577,-125.00411010639132,British Columbia,BA00056
9782,McKinnon Crescent,Fort Langley Golf Course,,Langley,,,,,,,,,,,,,,,,,,,,,,,,,,,,,,,,,,,,,,,,,,,,,,,391242.7939702032,49.178951582359765,-122.59252299431407,British Columbia,BA00073
,,Mount Brenton Golf Course,,,,,,,,,,,,,,,,,,,,,,,,,,,,,,,,,,,,,,,,,,,,,,,,,386816.5810456092,48.911001883499424,-123.71318730518968,British Columbia,BA00233
,,Penticton Golf & Country Club,,,,,,,,,,,,,,,,,,,,,,,,,,,,,,,,,,,,,,,,,,,,,,multipolygon,,,385826.8157699395,49.49116253706572,-119.6109045290248,British Columbia,BA00048
,,Club Shuswap Golf,,,,,,,,,,,,,,,,,,,,,,,,,,,,,,,,,,,,,,,,,,,,,,,,,384517.77424337965,50.743641716977386,-119.23242761987177,British Columbia,BA00303
,,Unknown Golf Course,,,,,,,,,,,,,Bing,,,,,,,,,,,,,,,,,,,,,,,,,,,,,,,,,,,,369442.01649102254,50.471086095670394,-115.94797288310222,British Columbia,BA00204
,,Shadow Ridge Golf Club,,,,,,,,,,,,,,,,,,,,,,,,,,,,,,,,,,,,,,,,,,,,,,,,,365439.4755028575,49.94288637368467,-119.38151420245019,British Columbia,BA00152
600,Golf Course Road,Meadow Creek Golf Club,,Logan Lake,BC,,,,,,,,,,,,,,,,,,,,,,,,,,,,,,,,,,,,,,,,,,,,,,362954.9103548823,50.49517350641584,-120.79592422750298,British Columbia,BA00297
,,Mackenzie Golf Course,,,,,,golf,,,,,,,Bing Sat,,,,,,,,,,,,,,,,,,,,,,,,,,,,,,,,,,,,362154.89767050795,55.32476920912905,-123.07621752027055,British Columbia,BA00119
,,Moberly Lake & District Golf Club,,,,,,,,,,,,,,,,,,,,,,,,,,,,,,,,,,,,,,,,,,,,,,,,,356248.6206488481,55.836889588424235,-121.79462392224438,British Columbia,BA00192
,,Sparwood Golf Club,,,,,,,,,,,,,,,,,,,,,,,,,,,,,,,,,,,,,,,,,,,,,,,,,350736.24597378075,49.72040958323479,-114.88633463714646,British Columbia,BA00212
,,Sparwood Golf Club,,,,,,,,,,,,,,,,,,,,,,,,,,,,,,,,,,,,,,,,,,,,,,,,,350736.24597378075,49.72040958323479,-114.88633463714646,British Columbia,BA00213
,,Cedar Hill Golf Course,+1 250 475 7151,,,,,,https://www.saanich.ca/EN/main/parks-recreation-community/cedar-hill-golf-course.html,,"Mo-Su, dawn-dusk",Saanich Parks & Recreation,,,,,,18_hole,,,,,,,,,,,,,,,,,,,,,,,,,,,,,,,,,349443.2278973992,48.45520090048264,-123.34546648466203,British Columbia,BA00290
5040,Number 6 Road,Green Acres Golf Course,,,,,,,,,,,,,,,,,,,,,,,,,,,,,,,,,,,,,,,,,,,,,,multipolygon,,,348970.28937504685,49.17558290948232,-123.06307582581138,British Columbia,BA00017
,,Unknown Golf Course,,,,,,,,,,,,,,,,,,,,,,,,,,,,,,,,,,,,,,,,,,,,,,,,,344014.6145249553,50.44475793802185,-116.24720262125635,British Columbia,BA00334
,,Granite Pointe Golf Club and RV Park,,,,,,,,,,,,,,,,,,,,,,,,,,,,,,,,,,,,,,,,,,,,,,,,,325433.80236214545,49.47903911725807,-117.30898042520806,British Columbia,BA00108
2704,Stones Bay Road,Stuart Lake Golf Course,,,,,,,https://www.stuartlakegolfclub.com/,,,,,,,,,9_hole,,,,,,,,,,,,,,,,,,,,,,,,,,,,,,,,,325138.77172228287,54.46092460458271,-124.29719613357433,British Columbia,BA00338
,,Bootleg Gap Rec 9 Course,+1-250-427-7077,Kimberley,BC,,,,https://www.bootleggapgolf.com/,,,,,,,,,,,,,,,,,,,,,,,,,,,,,,,,,,,,,,,,,,322658.4725514161,49.632051620204784,-115.94257137657341,British Columbia,BA00332
13823,Sunshine Coast Highway,Pender Harbour Golf Club,,Madera Park,,,,,,,,,,,,,,,,,,,,,,,,,,,,,,,,,,,,,,,,,,,,,,,314570.08524037723,49.64813275300751,-123.97376604106805,British Columbia,BA00280
13823,Sunshine Coast Highway,Pender Harbour Golf Club,,Madera Park,,,,,,,,,,,,,,,,,,,,,,,,,,,,,,,,,,,,,,,,,,,,,,,314570.08524037723,49.64813275300751,-123.97376604106805,British Columbia,BA00281
,,Salmo Golf Club,,,,,,,,,,,,,,,,,,,,,,,,,,,,,,,,,,,,,,,,,,,,,,,,,312090.3072247379,49.16452706756403,-117.26065356438875,British Columbia,BA00304
,,Mountain Meadows GC,+1-250-865–7413,Elkford,BC,V0B 1H0,,,https://www.mountainmeadowsgolf.com/index.html,,,,,,Bing,,,,,,,,,,,,,,,,,,,,,,,,,,,,,,,,,,,,306309.4983527318,50.012812838436325,-114.91948588830934,British Columbia,BA00125
,,Unknown Golf Course,,,,,,golf,,,,,,,NRCan-CanVec-10.0,,,,,,,,,,,,,,,,,,,,,,,,,,,,,,,,,,,,304998.02710034326,53.01620311483224,-122.55695694605372,British Columbia,BA00177
,,Harrison Resort Golf Course,,,,,,,,,,,,,,,,,,,,,,,,,,,,,,,,,,,,,,,,,,,,,,,,,304521.62238544296,49.27637226672574,-121.78694636195003,British Columbia,BA00084
7388,No. 6 Road,Savage Creek Golf Course,,Richmond,BC,V6W 1E1,,,,,,,,,,,,,,,,,,,,,,,,,,,,,,,,,,,,,,,,,,,,,289269.1898487414,49.160744862739826,-123.06313163227313,British Columbia,BA00138
,,Delta Golf Club,+1-604-594-1414,,,,,,https://www.deltagolfcourse.com/index.php?option=com_contact&catid=1&Itemid=20,,,,,,,,,,,,,,,,,,,,,,,,,,,,,,,,,,,,,,,,,,288833.43609122967,49.09790977729933,-122.89341804138583,British Columbia,BA00070
,,Alberni Golf Club,,,,,,,,,,,,,,,,,,,,,,,,,,,,,,,,,,,,,,,,,,,,,,,,,286668.1270068526,49.28915163454371,-124.78460725007305,British Columbia,BA00270
,,Kinkora Golf Course,,,,,,,,,,,,,,,,,,,,,,,,,,,,,,,,,,,,,,,,,,,,,,,,,284246.78738705424,49.12083127027206,-121.94767456568515,British Columbia,BA00079
,,Hope,,,,,,golf,,,,,,,NRCan-CanVec-7.0,,,,,,,,,,,,,,,,,,,,,,,,,,,,,,,,,,,,279728.84434822487,49.391869092320555,-121.43289449020168,British Columbia,BA00133
,,Surrey,,,,,,,,,,,,,,,,,,,,,,,,,,,,,,,,,,,,,,,,,,,,,,,,,278782.5711609977,49.06422993990698,-122.77746930011422,British Columbia,BA00092
805,Lower Ganges Road,Salt Spring Island Golf and Country Club,+1-250-537-2121,Salt Spring Islanf,BC,V8K 2N5,info@saltspringgolf.com,,https://www.saltspringgolf.com/,,,,,,,,A,,,,,,,,,,,,,,,,,,,,,,,,,,,,,,,,,,273718.4301582974,48.868636377744544,-123.52628646568063,British Columbia,BA00241
,,Cheam Mountain Golf Course,,,,,,,,,,,,,,,,,,,,,,,,,,,,,,,,,,,,,,,,,,,,,,,,,273626.67335827486,49.14134035949967,-121.99406653491903,British Columbia,BA00078
,,Radium Golf Course,,,,,,,,,,,,,,,,,,,,,,,,,,,,,,,,,,,,,,,,,,,,,,,,,272453.4144727773,50.59638339801505,-116.04405055239306,British Columbia,BA00294
,248 Street,Poppy Estate Golf Course,+1-604-856-1181,,,,,,https://www.poppygolf.ca,,,,,,,,3834,,,,,,,,,,,,,,,,,,,,,,,,,,,,,,,,,,271742.9316955282,49.0700039095743,-122.53025750006229,British Columbia,BA00255
1110,Highway 5 North,Valemount Pines Golf Course,+1-250-566-4550,Valemount,,V0E 2Z0,,,https://valemountpinesgolfrv.ca/,,,,,,,,,,,,,,,,,,,,,,,,,,,,,,,,,,,,,,,,,,260803.87915100929,52.85050392103655,-119.2940299461197,British Columbia,BA00234
,,Gabriola,,,,,,golf,,,,,,,NRCan-CanVec-8.0,,,,,,,,,,,,,,,,,,,,,,,,,,,,,,,,,,,,256719.75024372464,49.154042310918456,-123.8322473587222,British Columbia,BA00166
,,Cultus Lake Golf Club,,,,,,,,,,,,,,,,,,,,,,,,,,,,,,,,,,,,,,,,,,,,,,,,,255319.17224812435,49.07248337030831,-121.96676408742285,British Columbia,BA00080
,,Lacarya Golf Course,,,,,,,,,,,,,,,,,,,,,,,,,,,,,,,,,,,,,,,,,,,,,,,,,254827.06003130774,51.60009069809831,-120.11313099039312,British Columbia,BA00256
111,Champion Lake Road,Champion Lakes Golf Course,,Fruitvale,BC,V0G 1L0,,,,,,,,,,,,,,,,,,,,,,,,,,,,,,,,,,,,,,,,,,,,,249640.63116922387,49.158662715792005,-117.52021487635885,British Columbia,BA00300
,,Qualicum Beach Memorial Golf Course,,,,,,golf,,,,,,,,,,,,,,,,,,,,,,,,,,,,,,,,,,,,,,,,multipolygon,,,247602.7516710799,49.353934575513605,-124.44075935678848,British Columbia,BA00036
,Enderby Mabel Lake Road,Unknown Golf Course,,Enderby,BC,,,,,,,,,,,,,,,,,,,,,,,,,,,,,,,,,,,,,,,,,,,,,,247340.32410482687,50.60871167717221,-118.73484403814278,British Columbia,BA00323
,,Winchelsea View Golf Course,,,,,,,,,,,,,Bing Sat,,,,,,,,,,,,,,,,,,,,,,,,,,,,,,,,,multipolygon,,,245829.9480334012,49.24329237382073,-124.09951840664085,British Columbia,BA00038
3280,Highway 3,Kettle Valley Golf Club,,Rock Creek,BC,,,,,,,,,,,,,,,,,,,,,,,,,,,,,,,,,,,,,,,,,,,,,,244245.8532479523,49.04284606070737,-118.88839811185655,British Columbia,BA00298
3904,West 51st Avenue,Musqueam Golf & Learning Academy,,Vancouver,,,,,https://www.musqueamgolf.com/,,,,,,,,,,,,,,,,,,,,,,,,,,,,,,,,,,,,,,,,,,235699.81307671824,49.223415397203816,-123.19462981104856,British Columbia,BA00116
,,Beach Grove Golf and Country Club,,,,,,,,,,,,,,,,,,,,,,,,,,,,,,,,,,,,,,,,,,,,,,,,,233691.80821404088,49.02112819708604,-123.0609067048998,British Columbia,BA00262
,,Beach Grove Golf and Country Club,,,,,,,,,,,,,,,,,,,,,,,,,,,,,,,,,,,,,,,,,,,,,,,,,233419.08380824188,49.02804579003383,-123.06461111361217,British Columbia,BA00064
,,Mission Hills Golf Course,,,,,,,,,,,,,,,,,,,,,,,,,,,,,,,,,,,,,,,,,,,,,,,,,228757.74435975135,49.5463064100366,-115.74866417235953,British Columbia,BA00236
,,Houston Golf & Country Club,,,,,,,,,,,,,,,,,,,,,,,,,,,,,,,,,,,,,,,,,,,,,,,,,226048.49435703797,54.41612251471485,-126.62795844395596,British Columbia,BA00267
810,Beach Drive,Bowen Island Golf Club,,,,,proshop@bowengolf.com,,https://www.bowengolf.com/,,,,,,,,,9_hole,,,,35,,,,,,,,,,,,,,,,,,,,,,,,,,multipolygon,,,224422.9389270285,49.34044010151428,-123.36844939295875,British Columbia,BA00057
,,Merritt Golf & Country Club,,,,,,,https://www.merrittgolf.com/,,,,,,,,,,,,,,,,,,,,,,,,,,,,,,,,,,,,,,,multipolygon,,,223228.8405419743,50.11772094662483,-120.7920783794522,British Columbia,BA00045
,,Arrowsmith Golf and Country Club,,,,,,,,,,,,,,,,,,,,,,,,,,,,,,,,,,,,,,,,,,,,,,,,,222484.18915539948,49.36602093908435,-124.56663378319934,British Columbia,BA00283
,,March Meadows Golf Club,,,,,,,,,,,,,,,,,,,,,,,,,,,,,,,,,,,,,,,,,,,,,,,,,219420.04768549255,48.823998386315495,-124.19488881803524,British Columbia,BA00232
,,Unknown Golf Course,,,,,,golf,,,,,,,NRCan-CanVec-8.0,,,,,,,,,,,,,,,,,,,,,,,,,,,,,,,,,,,,214647.7495002888,49.45896012180132,-120.4654990692959,British Columbia,BA00157
,,Wells Gray Golf Course,,,,,,,,,,,,,,,,,,,,,,,,,,,,,,,,,,,,,,,,,,,,,,,,,214483.4108257753,51.93927555005458,-120.05160721858374,British Columbia,BA00197
,,Unknown Golf Course,,,,,,,,,,,,,,,,,,,,,,,,,,,,,,,,,,,,,,,,,,,,,,,,,212421.45502721518,49.08514862173672,-125.78529606642562,British Columbia,BA00295
,,Kelowna,,,,,,,,,,,,,,,,,,,,,,,,,,,,,,,,,,,,,,,,,,,,,,,,,212144.95567156436,49.83847867923462,-119.47045627809739,British Columbia,BA00155
,,Unknown Golf Course,,,,,,,,,,,,,,,,,,,,,,,,,,,,,,,,,,,,,,,,,,,,,,,,,207395.83217670635,49.60289677089754,-115.84622250329335,British Columbia,BA00306
,,Mission,,,,,,,,,,,,,,,,,,,,,,,,,,,,,,,,,,,,,,,,,,,,,,,,,205817.00989555748,49.144922105730814,-122.35827342188487,British Columbia,BA00202
,,Mission Creek Golf Club,,,,,,,,,,,,,,,,,,,,,,,,,,,,,,,,,,,,,,,,,,,,,,,,,203576.83589122287,49.85728342203716,-119.45349037559359,British Columbia,BA00153
4343,216 Street,Langley Golf Centre,+1-604-534-4555,Langley,,,,,https://www.langleygolfcentre.com,,,,,,,,,,,,,,,,,,,,,,,,,,,,,,,,,,,,,,,,,,202112.26865175768,49.079755426874144,-122.6275151829323,British Columbia,BA00307
,,Shannon Lake Golf Course,,,,,,,,,,,,,,,,,,,,,,,,,,,,,,,,,,,,,,,,,,,,,,,,,199765.67011403342,49.859821104764094,-119.60941694806262,British Columbia,BA00172
4561,Yellowhead Highway,Willow Grove Golf & Country Club,,,,,,,,,,,,,,,,,,,,,,,,,,,,,,,,,,,,,,,,,,,,,,,,,198014.82610249237,54.43761626669396,-126.59715727605601,British Columbia,BA00266
7778,152 Street,Eaglequest Golf Coyote Creek,,Surrey,,,,,,,,,,,,,,,,,,,,,,,,,,,,,,,,,,,,,,,,,,,,multipolygon,,,196759.6467661134,49.14204588676055,-122.79846502082259,British Columbia,BA00019
,,Hillview Golf,,,,,,,,,,,,,,,,,,,,,,,,,,,,,,,,,,,,,,,,,,,,,,,,,195780.35596631514,50.25074990894435,-119.24242228070642,British Columbia,BA00210
,,Shannon Lake Golf Course,,,,,,,,,Nov-Feb Mo-Fr 09:00-15:00,,,,,,,,,,,,,,,,,,,,,,,,,,,,,,,,,,,,,,,,195378.49864858136,49.86689369095567,-119.6101555138771,British Columbia,BA00171
,,Squamish,,,,,,,,,,,,,,,,,,,,,,,,,,,,,,,,,,,,,,,,,,,,,,,,,193982.3496357709,49.746775692783345,-123.1291400081203,British Columbia,BA00342
,,Westwood Plateau Executive 12-Hole Course,,,,,,,,,,,,,,,,,,,,,,,,,,,,,,,,,,,,,,,,,,,,,,,,,192964.6799195016,49.30634451233353,-122.81343608507969,British Columbia,BA00314
,,Ardmore Golf Course,,,,,,golf,,,,,Natural Resources Canada,1000082,CanVec_Import_2009,,,,,,,,,,,,,,,,,,,,,,,,,,,,,,,,,,,,191524.3014829112,48.63540908334322,-123.46165846362581,British Columbia,BA00158
,,Bridal Falls Golf Club,,,,,,,,,,,,,,,,,,,,,,,,,,,,,,,,,,,,,,,,,,,,,,,,,188322.89503685714,49.1798170009802,-121.7562164285116,British Columbia,BA00276
,,Nicowynd Golf Course,,,,,,,,,,,,,,,,,,,,,,,,,,,,,,,,,,,,,,,,,,,,,,,,,186502.68500813888,49.0706577870211,-122.83317318029947,British Columbia,BA00093
,,Unknown Golf Course,,,,,,,,,,,,,,,,,,,,,,,,,,,,,,,,,,,,,,,,,,,,,,,,,186081.30273678756,50.449412368796345,-116.25074261948279,British Columbia,BA00335
,,Quilchena Golf Course,,,,,,,https://www.douglaslake.com/quilchena-golf-index,,,,,,,,,9_hole,,,,,,,,,,,,,,,,,,,,,,,,,,,,,,,,,185755.53256247035,50.15736389697044,-120.51502341900672,British Columbia,BA00135
,,Quilchena Golf Course,,,,,,,https://www.douglaslake.com/quilchena-golf-index,,,,,,,,,9_hole,,,,,,,,,,,,,,,,,,,,,,,,,,,,,,,,,185755.53256247035,50.15736389697044,-120.51502341900672,British Columbia,BA00134
1718,Balmoral Avenue,Comox Golf Club,,,,,,,,,"PH,Mo-Su 09:00-17:00",,,,,,,,,,,,,,,,,,,,,,,,,,,,,,,,,,,,,multipolygon,,,183471.73159012245,49.67633955267872,-124.92406167031866,British Columbia,BA00040
,,Metchosin Golf Course & Country Club,,,,,,,,,,,,,,,,,,,,,,,,,,,,,,,,,,,,,,,,,,,,,,,,,182679.22414571958,48.388997753894316,-123.52930897393688,British Columbia,BA00160
,,Sonora Dunes Golf Course,,,,,,,https://www.sonoradunes.com/,,,,,,Bing,,,,,,,,,,,,,,,,,,,,,,,,,,,,,,,,,,,,181960.23246797224,49.04048342251242,-119.42951644656459,British Columbia,BA00205
111,White Lake Road,St. Andrews By-The-Lake,,Kaleden,BC,,,,,,,,,,,,,,,,,,,,,,,,,,,,,,,,,,,,,,,,,,,,,,179787.49061751837,49.33912136924511,-119.63353530976238,British Columbia,BA00299
,,Granite Pointe Golf Club and RV Park,,,,,,,,,,,,,,,,,,,,,,,,,,,,,,,,,,,,,,,,,,,,,,,,,179480.36181809942,49.476319144692994,-117.30003189241317,British Columbia,BA00109
,,Unknown Golf Course,,,,,,,,,,,,,,,,,,,,,,,,,,,,,,,,,,,,,,,,,,,,,,,,,179262.12267010883,54.76665644003692,-127.1279839781477,British Columbia,BA00193
,,Vanderhoof,,,,,,golf,,,,,,,NRCan-CanVec-8.0,,,,,,,,,,,,,,,,,,,,,,,,,,,,,,,,,,,,176768.98398241127,54.04575760744796,-124.00341188088014,British Columbia,BA00168
,,Vanderhoof,,,,,,golf,,,,,,,NRCan-CanVec-8.0,,,,,,,,,,,,,,,,,,,,,,,,,,,,,,,,,,,,176768.98398241127,54.04575760744796,-124.00341188088014,British Columbia,BA00169
,,Gleneagles Golf Course,,,,,,,,,,,,,,,,,,,,,,,,,,,,,,,,,,,,,,,,,,,,,,,,,176124.02227458032,49.364206987804415,-123.27910133539396,British Columbia,BA00121
155,Pryde Avenue,Pryde Vista,,,,,,,,,,,,,,,,,StatCan Open Data,,,,,,,,,,,,,,,,,,,,,,,,,,,,,,,,168175.54453591077,49.17555530411594,-123.97863845709183,British Columbia,BA00199
,,Kelowna,,,,,,golf,,,,,,,NRCan-CanVec-10.0,,,,,,,,,,,,,,,,,,,,,,,,,,,,,,,,,,,,168134.45888698625,49.858226701011645,-119.4537896549276,British Columbia,BA00287
,,Maple Ridge,,,,,,,,,,,,,,,,,,,,,,,,,,,,,,,,,,,,,,,,,,,,,,,,,166768.93631443102,49.20912128392974,-122.64327043385995,British Columbia,BA00196
,,The Pinnacle Course at Gallagher's Canyon,,,,,,,,,,,,,,,,,,,,,,,,,,,,,,,,,,,,,,,,,,,,,,multipolygon,,,160213.62316200807,49.84318048249681,-119.37289373926193,British Columbia,BA00034
2440,York Avenue,Royal York Golf Club,,Armstrong,,V0E 1B0,,golf,http://www.royalyorkrvpark.com/,,,,,,,,,,,,,,,,,,,,,,,,,,,,,,,,,,,,,,,,,,159626.31230984855,50.43632849842725,-119.18814404476414,British Columbia,BA00195
8400,No. 6 Road,Country Meadows Golf Course,,Richmond,BC,v6W 1E2,,,,,,,,,,,,,,,,,,,,,,,,,,,,,,,,,,,,,,,,,,,,,158389.55115674945,49.150922439910175,-123.0633580352122,British Columbia,BA00139
,,Wow Golf Club,,,,,,,,,,,,,,,,,,,,,,,,,,,,,,,,,,,,,,,,,,,Sage Mesa Golf & Country Club,,,,,,157769.33494277266,49.51341057336018,-119.62173405491284,British Columbia,BA00320
4725,Trans-Canada Highway,Pineridge Golf Course,,Kamloops,,,,,,,,,,,Bing;http://www.pineridgegolf.bc.ca,,,,,,,,,,,,,,,,,,,,,,,,,,,,,,,,,,,,157009.99217156172,50.668312951749684,-120.196773495509,British Columbia,BA00147
,,Alberni Golf Club,,,,,,,,,,,,,,,,,,,,,,,,,,,,,,,,,,,,,,,,,,,,,,,,,155629.18598118567,49.28996608510034,-124.77893276462328,British Columbia,BA00275
,,Pender Island Golf & Country Club,,,,,,,,,,,,,,,,,,,,,,,,,,,,,,,,,,,,,,,,,,,,,,,,,155402.49127980202,48.805631381637944,-123.31049432569718,British Columbia,BA00235
,,3385-3353 Canterbury Dr,,,,,,,,,,,,,,,,,,,,,,,,,,,,,,,,,,,,,,,,,,,,,,,,,153901.85413779842,49.06285586109025,-122.77089346484252,British Columbia,BA00258
4225,Blenkinsop Road,Mount Douglas Golf Course,,Saanich,,,,golf,,,,,,,NRCan-CanVec-8.0,,,,,,,,,,,,,,,,,,,,,,,,,,,,,,,,,,,,152845.54360600607,48.48166153682837,-123.35004474133083,British Columbia,BA00161
,,Mylora East,,,,,,,,,,,,,,,,,,Potlatch 0.9c,,,,,,,,,,,,,,,,,,,,,,,,,,,,,,,152172.00804054798,49.142450255838675,-123.08364627512036,British Columbia,BA00075
418,Pine,Kaslo Golf Club,,,,,,,,,,,,,,,,,,,,,,,,,,,,,,,,,,,,,,,,,,,,,,,,,151536.2412154188,49.90530728342956,-116.90859443802378,British Columbia,BA00278
,,Pine Valley Golf Centre,,,,,,,,,,,,,,,,,,,,,,,,,,,,,,,,,,,,,,,,,,,,,,,,,150664.24951605016,53.88636345095622,-122.77338922956791,British Columbia,BA00215
,,5038 Valley Drive,,,,,,golf,,,,,,,,,,,,,,,,,,,,,,,,,,,,,,,,,,,,,,,,,,,150528.96497850798,50.8813092558731,-119.86494006568604,British Columbia,BA00219
,,Unknown Golf Course,,,,,,golf,,,,,,,NRCan-CanVec-10.0,,,,,,,,,,,,,,,,,,,,,,,,,,,,,,,,,,,,149751.17193735013,52.21619435468483,-122.07973454525978,British Columbia,BA00337
,,Nakusp Golf Club,,,,,,,,,,,,,,,,,,,,,,,,,,,,approximate,,,,,,,,,,,,,,,,,,,,,149657.68383264798,50.23385603828764,-117.77083556098908,British Columbia,BA00118
,,Unknown Golf Course,,,,,,,,,,,,,,,,,,,,,,,,,,,,,,,,,,,,,,,,,,,,,,,,,149202.68079549505,49.65816482190145,-117.51584615505442,British Columbia,BA00242
,,Unknown Golf Course,,,,,,,,,,,,,,,,,,,,,,,,,,,,,,,,,,,,,,,,,,,,,,,,,147559.2676467937,49.45696229556113,-119.60945094531368,British Columbia,BA00277
2370,Crowsnest Highway,Will-O-Bend Golf & RV Park,+1-250-429-3377,Jaffray,,V0B 1T0,,,http://www.willobend.com,,,,,,,,,,,,,,,,,,,,,,,,,,,,,,,,,,,,,,,,,,138051.40518838255,49.37776513663008,-115.27643724104236,British Columbia,BA00216
,,Wildflower Golf Course,,,,,,,,,,,,,,private,,,,,,,,,,,,,,,,,,,,,,,,,,,,,,,,,,,133193.20844219124,50.41596818627464,-125.13646333157882,British Columbia,BA00238
4985,Cotton Road,Mulligans Golf Course,+1-250-338-2440,,,,,,,,,,,,,,,,,,,,,,,,,,,,,,,,,,,,,,,,,,,,,,,,132988.89030108778,49.72032484370307,-125.00250108820231,British Columbia,BA00143
,,Unknown Golf Course,,,,,,,,,,,,,Bing,,,,,,,,,,,,,,,,,,,,,,,,,,,,,,,,,,,,130897.62496340305,50.51979406831196,-116.01093386222503,British Columbia,BA00203
,,Hollies Executive Golf Course,,,,,,,,,,,,,,,,,,,,,,,,,,,,,,,,,,,,,,,,,,,,,,,,,129511.58531949727,49.26897301609908,-124.77491518875735,British Columbia,BA00240
,,Mylora West,,,,,,,,,,,,,,,,,,Potlatch 0.9c,,,,,,,,,,,,,,,,,,,,,,,,,,,,,,,127717.16377777318,49.1424783,-123.08934760000001,British Columbia,BA00074
,,Eagle River Golf & Country Club,,,,,,,,,,,,,,,,,,,,,,,,,,,,,,,,,,,,,,,,,,,,,,,,,126707.17689936346,50.84820034482037,-118.95589841825034,British Columbia,BA00331
,,Cove Links,,,,,,,https://www.hamptoncove.ca,,,The Links at Hampton Cove,,,,,,,,,,,,,,,,,,,,,,,,,,,,,,,,,,,,multipolygon,,,121276.48267615454,49.10977582996304,-123.07197647536557,British Columbia,BA00047
,,100 Mile House,,,,,,,,,,,,,,,,,,,,,,,,,,,,,,,,,,,,,,,,,,,,,,,,,119679.59264783787,51.653974702632524,-121.29602725428622,British Columbia,BA00284
101,Golf Course Road,Slocan Lake Golf Course,,New Denver,BC,V0G 1S1,,,,,,,,,,,,,,,,,,,,,,,,,,,,,,,,,,,,,,,,,,,,,118668.04467309336,50.011960999837,-117.38533049641957,British Columbia,BA00301
,,Spur Valley Greens,,,,,,,,,,,,,,,,,,,,,,,,,,,,,,,,,,,,,,,,,,,,,,,,,115196.50086525953,50.761781756286645,-116.19905641342272,British Columbia,BA00239
,,Sunshine Woods Golf Club,+1-604-596-0533,,,,,,https://www.sunshinewoods.com/,,,,,,,,,,,,,,,,,,,,,,,,,,,,,,,,,,,,,,,,,,111986.85581288385,49.1183268103382,-122.93082043049006,British Columbia,BA00065
,,Bighorn Colf & Country Club,,,,,,,,,,,,,,,,,,,,,,,,,,,,,,,,,,,,,,,,,,,,,,,,,109768.84104157545,50.68603653376576,-120.30247371042279,British Columbia,BA00187
,,Unknown Golf Course,,,,,,golf,,,,,,,NRCan-CanVec-8.0,,,,,,,,,,,,,,,,,,,,,,,,,,,,,,,,,,,,108494.9534871133,50.9664505521913,-119.17384492670935,British Columbia,BA00156
,,Mount Paul Golf Course,,,,,,,,,,,,,Bing,,,,,,,,,,,,,,,,,,,,,,,,,,,,,,,,,,,,107793.50567302926,50.688470923819956,-120.3186670495301,British Columbia,BA00146
,,Little Bear Golf Course,,,,,,,,,,,,,,,,,,,,,,,,,,,,,,,,,,,,,,,,,,,,,,,,,107679.14964812215,49.27447070541001,-117.63659254782695,British Columbia,BA00132
,,Sun Peaks,,,,,,golf,,,,,,,,,,,,,,,,,,,,,,,,,,,,,,,,,,,,,,,,,,,106066.82152447266,50.882693071709134,-119.88090719258835,British Columbia,BA00221
5889,Curtis Street,Kensington Pitch and Putt,,,,V5C 4M8,,,https://www.golfburnaby.ca/kensington,,,,,,,,,,,,,,,,,,,,,,,,,,,,,,,,,,,,,,,,,,103695.84417811307,49.276984867157566,-122.97878950994294,British Columbia,BA00107
,,Unknown Golf Course,,,,,,golf,,,,,,,NRCan-CanVec-10.0,,,,,,,,,,,,,,,,,,,,,,,,,,,,,,,,,,,,102397.95137932496,50.55903481036475,-116.03978706015197,British Columbia,BA00244
1001,United Boulevard,Eaglequest Golf,+1-604-523-6400,,,V3K 4S8,,golf,https://eaglequestgolf.com,,,,,,,customers,,,,,,,,,Coquitlam,eaglequest golf,yes,,,,,,,,,,,,,,,,,,,,,,,,101798.84302222022,49.23154754089671,-122.87066856935755,British Columbia,BA00113
,,Chase,,,,,,golf,,,,,,,NRCan-CanVec-7.0,,,,,,,,,,,,,,,,,,,,,,,,,,,,,,,,,,,,101421.06274901192,50.82459819395006,-119.69103513892561,British Columbia,BA00141
359,Martindale Road,Brigadoon Golf Course,+1-250-954-0644,,,,,,https://www.brigadoongolfcourse.com/,,,,,,Bing,,,,,,,,,,,,,,,,,,,,,,,,,,,,,,,,+1-250-954-0645,,,,99444.29996072422,49.31090211873167,-124.28922020239801,British Columbia,BA00206
,,Lumby Golf Course,,,,,,,,,,,,,,,,,,,,,,,,,,,,,,,,,,,,,,,,,,,,,,,,,97388.61120703492,50.250916272438374,-118.95158116394936,British Columbia,BA00293
,,Unknown Golf Course,,,,,,golf,,,,,,,NRCan-CanVec-7.0,,,,,,,,,,,,,,,,,,,,,,,,,,,,,,,,,,,,95421.85480247969,50.015536613458565,-119.49196348093483,British Columbia,BA00144
,,Pacific Playgrounds Golf Course,,,,,,,,,,,,,,,,,,,,,,,,,,,,,,,,,,,,,,,,,,,,,,,,,95162.21582877895,49.86209719443287,-125.11924456879999,British Columbia,BA00228
,,Kamloops Indian Reserve No. 1,,,,,,,,,,,,,,,,,,,,,,,,,,,,,,,,,,,,,,,,,,,,,,,,,94693.35246790388,50.6895403280183,-120.30191849635358,British Columbia,BA00189
5585,Highway 95,Edgewater Hilltop Par 3,,Edgewater,BC,V0A 1E0,,,,,,,,,,,,,,,,,,,,,,,,,,,,,,,,,,,,,,,,,,,,,94546.94722872939,50.708958282548686,-116.13379447379258,British Columbia,BA00302
1239,Anderton Road,The Park Golf Course & Restaurant & RV Park,,Comox,BC,V9M 3Z2,,,,,,,,,,,,,,,,,,,,,,,,,,,,,,,,,,,,,,,,,,,,,87280.25634319105,49.70242547012483,-124.94132422912006,British Columbia,BA00198
,,Prince George,,,,,,,,,,,,,,,,,,,,,,,,,,,,,,,,,,,,,,,,,,,,,,,,,87204.97925790344,53.844596388812,-122.82703390804825,British Columbia,BA00217
,,Galiano Golf and Country Club,,,,,,golf,,,,,,,,,,,,,,,,,,,,,,,,,,,,,,,,,,,,,,,,,,,86172.11609143023,48.89417545673479,-123.34699642203769,British Columbia,BA00164
,,Meridian Golf Course,,,,,,,,,,,,,,,,,,Potlatch 0.10b,,,,,,,,,,,,,,,,,,,,,,,,,,,,,,,84287.88345979285,49.021482258830986,-122.75589298787486,British Columbia,BA00090
,,DeMamiel Creek Golf Course,,,,,,,,,,,,,,,,,,,,,,,,,,,,,,,,,,,,,,,,,,,,,,,,,82769.86971465629,48.38744663835869,-123.71397040799744,British Columbia,BA00263
,,Central Park Pitch & Putt,,,,,,,,,,,,,,,,,,,,,,,,,,,,,,,,,,,,,,,,,,,,,,,,,81276.43479843986,49.22321720492297,-123.01510238824106,British Columbia,BA00114
,,Juan de Fuca Golf Course,,,,,,,,,,,,,,,,,,,,,,,,,,,,,,,,,,,,,,,,,,,,,,,,,80435.90375571999,48.447357114401385,-123.460013507693,British Columbia,BA00083
,,Sumac Ridge Golf Club,,,,,,,,,,,,,,,,9_hole,,,,28,,,,,,,,,,,,,,,,,,,,,,,,,,multipolygon,,,79312.16390127438,49.62049962892665,-119.67614564247532,British Columbia,BA00049
,,Queen Elizabeth Pitch & Putt,,,,,,,,,,,,,,,,pitch_and_putt,,,,,,,,,,,,,,,,,,,,,,,,,,,,,,,,,71841.56931807943,49.2389672257872,-123.10879678479196,British Columbia,BA00105
4955,192 Street,Hi-Knoll Driving Range & Mini-Golf,,,,,,,,,,,,,,,,,,,,,,,,,,,,,,,,,,,,,,,,,,,,,,,,,71821.74705263042,49.092991219141645,-122.69285825048821,British Columbia,BA00248
,,Birdies & Buckets Family Golf Centre,+1-604-592-9188,,,,,,https://www.birdiesandbuckets.com/,,,,,,,,,,,,,,,,,,,,,,,,,,,,,,,,,,,,,,,,,,71486.1025846488,49.09885827858827,-122.81552670341233,British Columbia,BA00190
,,Cascade Par 3,,,,,,,,,,,,,,,,,,,,,,,,,,,,,,,,,,,,,,,,,,,,,,,,,70285.83348720877,49.01960654854265,-118.20253761064565,British Columbia,BA00273
,,Surrey,,,,,,,,,,,,,,,,,,,,,,,,,,,,,,,,,,,,,,,,,,,,,,,,,68222.14767428511,49.06202079166476,-122.78485000863031,British Columbia,BA00091
,,Sun Peaks,,,,,,golf,,,,,,,,,,,,,,,,,,,,,,,,,,,,,,,,,,,,,,,,,,,65237.18442084959,50.88043936332861,-119.89511773393717,British Columbia,BA00220
,,Vanderhoof,,,,,,golf,,,,,,,NRCan-CanVec-7.0,,,,,,,,,,,,,,,,,,,,,,,,,,,,,,,,,,,,64544.94241989506,54.047281468962794,-123.99817778013305,British Columbia,BA00129
,,Gold River,,,,,,,,,,,,,,,,,,,,,,,,,,,,,,,,,,,,,,,,,,,,,,,,,64457.529922383954,49.759004638043656,-126.05610865807148,British Columbia,BA00330
5640,188 Street,Clayton Hills Golf Course,+1 778 571 1615,Surrey,British Columbia,,,,,,Mo-Su 08:00-20:00,,,,,,,,,,,,,,,,,,,Open April-November,,,,,,,,,,,,,,,,,,,,,63539.977546368806,49.10521466731962,-122.6996970300199,British Columbia,BA00225
5640,188 Street,Clayton Hills Golf Course,+1 778 571 1615,Surrey,British Columbia,,,,,,Mo-Su 08:00-20:00,,,,,,,,,,,,,,,,,,,Open April-November,,,,,,,,,,,,,,,,,,,,,63539.977546368806,49.10521466731962,-122.6996970300199,British Columbia,BA00226
,,Richmond,,,,,,,,,,,,,,,,,,,,,,,,,,,,,,,,,,,,,,,,,,,,,,,,,62549.292050253025,49.17943292842884,-123.06686380095405,British Columbia,BA00163
,,Green Acres Par 3 Driving Range,,,,,,,,,,,,,ParcelMap BC Parcel Fabric,,,,,,,,,,,,,,,,,,,,,,,,,,,,,,,,,,,,61173.39840249383,48.39363029257905,-123.51824862202518,British Columbia,BA00291
,,Surrey,,,,,,,,,,,,,,,,,,,,,,,,,,,,,,,,,,,,,,,,,,,,,,,,,60566.02304310831,49.06904074697146,-122.78222055161872,British Columbia,BA00260
,,Pine Hills Golf Club,,,,,,golf,,,,,,,NRCan-CanVec-10.0,,,,,,,,,,,,,,,,,,,,,,,,,,,,,,,,,,,,60254.54717273109,49.51899300713738,-119.62403965296265,British Columbia,BA00286
,,Beban Park Golf Centre,,,,,,,,,,,,,,,,,,,,,,,,,,,,,,,,,,,,,,,,,,,,,,,,,58535.82900718356,49.193619450590646,-123.98827656061154,British Columbia,BA00208
,,Highlands Golf,,,,,,,,,,,,,,,,,,,,,,,,,,,,,,,,,,,,,,,,,,,,,,,,,56193.92112772717,50.23207118570344,-119.16881087081633,British Columbia,BA00292
,,Cordova Bay Golf Course - Ridge Course,,,,,,,,,,,,,,,,,,,,,,,,,,,,,,,,,,,,,,,,,,,,,,,,,56143.414762543354,48.53068747883803,-123.3769016692483,British Columbia,BA00137
,,Surrey,,,,,,,,,,,,,,,,,,,,,,,,,,,,,,,,,,,,,,,,,,,,,,,,,55876.352321186445,49.0701794829829,-122.78602718274125,British Columbia,BA00259
,,Rupert Park Pitch & Putt,,,,,,,,,,,,,,,,,,,,,,,,,,,,,,,,,,,,,,,,,,,,,,,,,52165.02576179036,49.272002263093505,-123.03094445212461,British Columbia,BA00102
9751,Pendleton Road,West Richmond Pitch & Putt Golf Course,,Richmond,BC,,,,,,Mo-Su 09:00-19:00,City of Richmond,,,,,,,,,,,,,,,,,,,,,,,,,,,,,,,,,,,,,,,47807.94250205744,49.14667124615753,-123.17580384389835,British Columbia,BA00101
,,Stanley Park Pitch & Putt,+1-604-681-8847,,,,,golf,https://vancouver.ca/parks-recreation-culture/stanley-park-pitch-putt.aspx,,,City of Vancouver,,,,,,,,,,,,,,,,,,,,,,,,,,,,,,,,,,,,,,,46197.85712858561,49.29389900485723,-123.14584858598211,British Columbia,BA00115
,,Kamloops Indian Reserve No. 1,,,,,,,,,,,,,,,,,,,,,,,,,,,,,,,,,,,,,,,,,,,,,,,,,44504.4546602674,50.69186137961514,-120.28723092857616,British Columbia,BA00326
,,Ladysmith Golf Club,,,,,,,,,,,,,,,,,,,,,,,,,,,,,,,,,,,,,,,,,,,,,,multipolygon,,,39479.5501853997,48.97749071925711,-123.80687937925266,British Columbia,BA00030
,,Kamloops Indian Reserve No. 1,,,,,,,,,,,,,,,,,,,,,,,,,,,,,,,,,,,,,,,,,,,,,,,,,39258.44591316748,50.68946709005977,-120.29161026413496,British Columbia,BA00324
,,Pitch and Putt,,,,,,,,,,,,,,,,,,,,,,,,,,,,,,,,,,,,,,,,,,,,,,,,,35394.87307467164,49.32308140508884,-123.14539341679935,British Columbia,BA00251
12309,240 Street,Hacker's Haven,,,,V4R1M9,,,https://hackershavenpar3.com/,,"""Golfing Season"":08:00-19:00",,,,,,,9,,,,3,,,,,,,,,,,,info@hackershavenpar3.com,,+1-604-467-3061,,,,,www.facebook.com/HackersHavenPar3,,,,,,,,,,35271.94507072119,49.22559341048901,-122.55951176165782,British Columbia,BA00343
,,Chase,,,,,,golf,,,,,,,NRCan-CanVec-7.0,,,,,,,,,,,,,,,,,,,,,,,,,,,,,,,,,,,,34941.08655055484,50.826948675650186,-119.69132221821317,British Columbia,BA00140
,,Henderson Park Golf Course,,,,,,,,,,,,,,,,,,,,,,,,,,,,,,,,,,,,,,,,,,,,,,,,,32709.628058502683,48.456576872078436,-123.31251383796817,British Columbia,BA00159
,,Kamloops Indian Reserve No. 1,,,,,,,,,,,,,,,,,,,,,,,,,,,,,,,,,,,,,,,,,,,,,,,,,32018.28604961317,50.686083832625364,-120.29318496378438,British Columbia,BA00185
,,Gold River,,,,,,,,,,,,,,,,,,,,,,,,,,,,,,,,,,,,,,,,,,,,,,,,,30896.528479636232,49.756095779354006,-126.05070055951515,British Columbia,BA00328
,,Shuswap Lake Golf Course,,,,,,,,,,,,,,,,,,,,,,,,,,,,,,,,,,,,,,,,,,,,,,,,,28857.415884103928,50.86902422192998,-119.36912342252118,British Columbia,BA00315
,,Surrey,,,,,,,,,,,,,,,,,,,,,,,,,,,,,,,,,,,,,,,,,,,,,,,,,28707.487864974835,49.06593343357952,-122.78546187697198,British Columbia,BA00257
,,Unknown Golf Course,,,,,,golf,,,,,,,NRCan-CanVec-10.0,,,,,,,,,,,,,,,,,,,,,,,,,,,,,,,,,,,,26559.24056694909,50.54486829248,-116.01904803261395,British Columbia,BA00243
,,River Gate Drive,,,,,,,,,,,,,,,,,,,,,,,,,,,,,,,,,,,,,,,,,,,,,,,,,26330.15617693107,50.6840101182265,-120.2969443015973,British Columbia,BA00184
,,Unknown Golf Course,,,,,,,,,,,,,,,,,,,,,,,,,,,,,,,,,,,,,,,,,,,,,,,,,26230.86951996632,50.454149565594435,-116.25092721267116,British Columbia,BA00336
,,Gold River,,,,,,,,,,,,,,,,,,,,,,,,,,,,,,,,,,,,,,,,,,,,,,,,,25931.615847598914,49.7559364820127,-126.05196505704629,British Columbia,BA00329
,,Pacific Playgrounds Driving Range,,,,,,,,,,,,,visited,,,,,,,,,,,,,,,,,,,,,,,,,,,,,,,,,,,,23034.263497372078,49.8678908103097,-125.1212166190674,British Columbia,BA00237
,,Sun Peaks,,,,,,golf,,,,,,,,,,,,,,,,,,,,,,,,,,,,,,,,,,,,,,,,,,,22631.5600599444,50.8803250973071,-119.89990510188075,British Columbia,BA00223
,,Seymour Creek Golf Centre,,,,,,,,,,,,,,,,,,,,,,,,,,,,,,,,,,,,,,,,,,,,,,,,,22600.82397426109,49.30783563642844,-123.02592000195509,British Columbia,BA00179
,,Kamloops Indian Reserve No. 1,,,,,,,,,,,,,,,,,,,,,,,,,,,,,,,,,,,,,,,,,,,,,,,,,20142.662495585937,50.68633766082358,-120.28639652280673,British Columbia,BA00325
,,Sun Peaks,,,,,,golf,,,,,,,,,,,,,,,,,,,,,,,,,,,,,,,,,,,,,,,,,,,19628.431355645604,50.877199612803004,-119.90159830783023,British Columbia,BA00222
2050,Campbell Road,19 Greens Putting Course,,West Kelowna,British Columbia,V1Z3X7,,,http://www.19greenskelowna.com/,,Mo-Su 10:00-19:00,,,,,,,,,,,,,,,,,,,,,,,,,,,,,,,,,,,,,,,,18391.594883761893,49.87907436173462,-119.52537206441032,British Columbia,BA00182
,,Murdo Frazer Pitch & Putt,,,,,,,,,,,,,,,,,,,,,,,,,,,,,,,,,,,,,,,,,,,,,,,,,16390.68678383887,49.33416734295084,-123.10864326037343,British Columbia,BA00218
,,Kamloops Indian Reserve No. 1,,,,,,golf,,,,,,,,,,,,,,,,,,,,,,,,,,,,,,,,,,,,,,,,,,,16338.956181798792,50.69008879467905,-120.28377879780471,British Columbia,BA00181
,,Kamloops Indian Reserve No. 1,,,,,,,,,,,,,,,,,,,,,,,,,,,,,,,,,,,,,,,,,,,,,,,,,15343.966215970764,50.68997568314934,-120.28619665595758,British Columbia,BA00327
,,Golden Ears Way,,,,,,,,,,,,,,,,,,,,,,,,,,,driving_range,,grass,,,,,,,,,,,,,,,,,,,,11119.3527501398,49.22549300998844,-122.66692695781347,British Columbia,BA00319
